[
{"name":"Ventana Ovalo","location":{"country":{"slug":"gymex"},"coordinates":{"lat":-13.531531,"lng":-71.968447},"full_address":"-13.531531,-71.968447"}},
{"name":"Kuntur Apuchin","location":{"country":{"slug":"gymex"},"coordinates":{"lat":-13.537916,"lng":-71.904456},"full_address":"-13.537916,-71.904456"}},
{"name":"Gran Almirante, Correo","location":{"country":{"slug":"gym"},"coordinates":{"lat":-13.523571,"lng":-71.975001},"full_address":"-13.523571,-71.975001"}},
{"name":"San Borja","location":{"country":{"slug":"gym"},"coordinates":{"lat":-13.515627,"lng":-71.978465},"full_address":"-13.515627,-71.978465"}},
{"name":"Inca Relics","location":{"country":{"slug":"gymex"},"coordinates":{"lat":-13.508499,"lng":-71.983852},"full_address":"-13.508499,-71.983852"}},
{"name":"Cristo Blanco","location":{"country":{"slug":"gym"},"coordinates":{"lat":-13.509662,"lng":-71.978142},"full_address":"-13.509662,-71.978142"}},
{"name":"Qenqo","location":{"country":{"slug":"gym"},"coordinates":{"lat":-13.508968,"lng":-71.97057},"full_address":"-13.508968,-71.97057"}},
{"name":"CEMENTERIO SAN JERONIMO","location":{"country":{"slug":"gym"},"coordinates":{"lat":-13.541141,"lng":-71.886297},"full_address":"-13.541141,-71.886297"}},
{"name":"SAN JERONIMO","location":{"country":{"slug":"gym"},"coordinates":{"lat":-13.544468,"lng":-71.886297},"full_address":"-13.544468,-71.883372"}},
{"name":"ENTRADA SAN SEBASTIAN","location":{"country":{"slug":"gym"},"coordinates":{"lat":-13.53683,"lng":-71.906647},"full_address":"-13.53683,-71.906647"}},
{"name":"AEROPUERTO","location":{"country":{"slug":"gym"},"coordinates":{"lat":-13.537897,"lng":-71.943762},"full_address":"-13.537897,-71.943762"}},
{"name":"SAN SEBASTIAN","location":{"country":{"slug":"gym"},"coordinates":{"lat":-13.530095,"lng":-71.937757},"full_address":"-13.530095,-71.937757"}},
{"name":"MAGISTERIO","location":{"country":{"slug":"gym"},"coordinates":{"lat":-13.523904,"lng":-71.947851},"full_address":"-13.523904, -71.947851"}},
{"name":"INDEPENDIZADORES","location":{"country":{"slug":"gym"},"coordinates":{"lat":-13.533321,"lng":-71.955087},"full_address":"-13.533321,-71.955087"}},
{"name":"HOSPITAL","location":{"country":{"slug":"gym"},"coordinates":{"lat":-13.524331,"lng":-71.956753},"full_address":"-13.524331,-71.956753"}},
{"name":"MURAL","location":{"country":{"slug":"gym"},"coordinates":{"lat":-13.523132,"lng":-71.963421},"full_address":"-13.523132,-71.963421"}},
{"name":"ROSASPATA","location":{"country":{"slug":"gym"},"coordinates":{"lat":-13.517626,"lng":-71.966729},"full_address":"-13.517626,-71.966729"}},
{"name":"PLAZA TUPAC","location":{"country":{"slug":"gym"},"coordinates":{"lat":-13.523046,"lng":-71.966019},"full_address":"-13.523046,-71.966019"}},
{"name":"ESTADIO","location":{"country":{"slug":"gym"},"coordinates":{"lat":-13.524384,"lng":-71.966925},"full_address":"-13.524384,-71.966925"}},
{"name":"OVALO MONUMENTO","location":{"country":{"slug":"gym"},"coordinates":{"lat":-13.531336,"lng":-71.968818},"full_address":"-13.531336,-71.968818"}},
{"name":"CONDOR MINI","location":{"country":{"slug":"gym"},"coordinates":{"lat":-13.528027,"lng":-71.970935},"full_address":"-13.528027,-71.970935"}},
{"name":"PACCHA","location":{"country":{"slug":"gym"},"coordinates":{"lat":-13.524724,"lng":-71.972639},"full_address":"-13.524724,-71.972639"}},
{"name":"RIMACPAMPA","location":{"country":{"slug":"gym"},"coordinates":{"lat":-13.519618,"lng":-71.973553},"full_address":"-13.519618,-71.973553"}},
{"name":"QORICANCHA","location":{"country":{"slug":"gym"},"coordinates":{"lat":-13.519905,"lng":-71.975318},"full_address":"-13.519905,-71.975318"}},
{"name":"PALACIO","location":{"country":{"slug":"gym"},"coordinates":{"lat":-13.518827,"lng":-71.977659},"full_address":"-13.518827,-71.977659"}},
{"name":"SANTA CATALINA","location":{"country":{"slug":"gym"},"coordinates":{"lat":-13.51765,"lng":-71.977184},"full_address":"-13.51765,-71.977184"}},
{"name":"SAN BLAS","location":{"country":{"slug":"gym"},"coordinates":{"lat":-13.515173,"lng":-71.974229},"full_address":"-13.515173,-71.974229"}},
{"name":"PLAZA DE ARMAS","location":{"country":{"slug":"gym"},"coordinates":{"lat":-13.516701,"lng":-71.978699},"full_address":"-13.516701,-71.978699"}},
{"name":"BOLIVAR","location":{"country":{"slug":"gym"},"coordinates":{"lat":-13.518865,"lng":-71.981751},"full_address":"-13.518865,-71.981751"}},
{"name":"SAN FRANCISCO","location":{"country":{"slug":"gym"},"coordinates":{"lat":-13.51827,"lng":-71.981913},"full_address":"-13.51827,-71.981913"}},
{"name":"PARQUE DE LA MADRE","location":{"country":{"slug":"gym"},"coordinates":{"lat":-13.515549,"lng":-71.981726},"full_address":"-13.515549,-71.981726"}},
{"name":"POKENKANCHA","location":{"country":{"slug":"gym"},"coordinates":{"lat":-13.5292254,"lng":-71.9921605},"full_address":"-13.5292254,-71.9921605"}},
{"name":"TEMPLO SANTIAGO","location":{"country":{"slug":"gym"},"coordinates":{"lat":-13.5256466,"lng":-71.9835295},"full_address":"-13.5256466,-71.9835295"}},
{"name":"PUENTE GRAU","location":{"country":{"slug":"gym"},"coordinates":{"lat":-13.524260,"lng":-71.977949},"full_address":"-13.524260,-71.977949"}},
{"name":"TITANIC","location":{"country":{"slug":"gym"},"coordinates":{"lat":-13.545369,"lng":-71.986431},"full_address":"-13.545369,-71.986431"}},
{"name":"TORRECHAYOC","location":{"country":{"slug":"gymex"},"coordinates":{"lat":-13.515072,"lng":-71.965449},"full_address":"-13.515072, -71.965449"}},
{"name":"PARQUE SICUANI","location":{"country":{"slug":"gym"},"coordinates":{"lat":-13.528023,"lng":-71.961278},"full_address":"-13.528023, -71.961278"}},
{"name":"Parque Squeit","location":{"country":{"slug":"gym"},"coordinates":{"lat":-13.534478,"lng":-71.90354},"full_address":"-13.534478,-71.90354"}},
{"name":"Iglesia Santa Rita","location":{"country":{"slug":"gymex"},"coordinates":{"lat":-13.531338,"lng":-71.89932},"full_address":"-13.531338,-71.89932"}},
{"name":"Bienvenido san Jeronimo","location":{"country":{"slug":"gym"},"coordinates":{"lat":-13.537134,"lng":-71.90617},"full_address":"-13.537134,-71.90617"}},
{"name":"Puente Marcavalle","location":{"country":{"slug":"gym"},"coordinates":{"lat":-13.527338,"lng":-71.94597},"full_address":"-13.527338,-71.94597"}},
{"name":"Consulado belgica","location":{"country":{"slug":"gym"},"coordinates":{"lat":-13.524288,"lng":-71.94825},"full_address":"-13.524288, -71.94825"}},
{"name":"Mural Hospital Regional","location":{"country":{"slug":"gym"},"coordinates":{"lat":-13.524091,"lng":-71.95546},"full_address":"-13.524091,-71.95546"}},
{"name":"Ing Electronica","location":{"country":{"slug":"gym"},"coordinates":{"lat":-13.521086,"lng":-71.95696},"full_address":"-13.521086,-71.95696"}},
{"name":"Parroquia sra. de gracia","location":{"country":{"slug":"gym"},"coordinates":{"lat":-13.51572,"lng":-71.951355},"full_address":"-13.51572,-71.951355"}},
{"name":"Occhullo grande","location":{"country":{"slug":"gym"},"coordinates":{"lat":-13.5186205,"lng":-71.96092},"full_address":"-13.5186205,-71.96092"}},
{"name":"Parroquia Trinidad","location":{"country":{"slug":"gym"},"coordinates":{"lat":-13.520994,"lng":-71.96251},"full_address":"-13.520994,-71.96251"}},
{"name":"Mariscal Gamarra","location":{"country":{"slug":"gym"},"coordinates":{"lat":-13.521944,"lng":-71.962776},"full_address":"-13.521944,-71.962776"}},
{"name":"Mariscal Gamarra","location":{"country":{"slug":"gym"},"coordinates":{"lat":-13.521944,"lng":-71.962776},"full_address":"-13.521944,-71.962776"}},
{"name":"Loza Tio","location":{"country":{"slug":"gymex"},"coordinates":{"lat":-13.533534,"lng":-71.96237},"full_address":"-13.533534,-71.96237"}},
{"name":"Mercado Tio","location":{"country":{"slug":"gym"},"coordinates":{"lat":-13.531607,"lng":-71.96028},"full_address":"-13.531607,-71.96028"}},
{"name":"Museo Natural","location":{"country":{"slug":"gym"},"coordinates":{"lat":-13.517639,"lng":-71.97872},"full_address":"-13.517639,-71.97872"}},
{"name":"Fuente san Blas","location":{"country":{"slug":"gym"},"coordinates":{"lat":-13.515146,"lng":-71.97412},"full_address":"-13.515146,-71.97412"}},
{"name":"Cruz Cristo nuestro señor de Tica Tica","location":{"country":{"slug":"gym"},"coordinates":{"lat":-13.507595,"lng":-72.005813},"full_address":"-13.507595, -72.005813"}},
{"name":"Arcos de Tica Tica","location":{"country":{"slug":"gym"},"coordinates":{"lat":-13.507552,"lng":-72.005596},"full_address":"-13.507552, -72.005596"}},
{"name":"Villa miraflores","location":{"country":{"slug":"gym"},"coordinates":{"lat":-13.543509,"lng":-71.89695},"full_address":"-13.543509,-71.89695"}},
{"name":"san jeronimo","location":{"country":{"slug":"gym"},"coordinates":{"lat":-13.543271,"lng":-71.88688},"full_address":"-13.543271,-71.88688"}},
{"name":"Gruta santa rosa","location":{"country":{"slug":"gym"},"coordinates":{"lat":-13.532766493198729,"lng":-71.92102940443777},"full_address":"-13.532766493198729, -71.92102940443777"}},
{"name":"A tupac amaru","location":{"country":{"slug":"gym"},"coordinates":{"lat":-13.531997397145448,"lng":-71.9258347097015},"full_address":"-13.531997397145448, -71.9258347097015"}},
{"name":"Guacamayo Gigante","location":{"country":{"slug":"gym"},"coordinates":{"lat":-13.529567832902222,"lng":-71.95719061078722},"full_address":"-13.529567832902222, -71.95719061078722"}},
{"name":"Parque infaltil Kantuta","location":{"country":{"slug":"gym"},"coordinates":{"lat":-13.54543,"lng":-71.895195},"full_address":"-13.54543,-71.895195"}},
{"name":"Plaza Santiago","location":{"country":{"slug":"gymex"},"coordinates":{"lat":-13.525391,"lng":-71.983358},"full_address":"-13.525391, -71.983358"}},
{"name":"Mapa del sistema vial","location":{"country":{"slug":"gymex"},"coordinates":{"lat":-13.533694,"lng":-71.91184199999999},"full_address":"-13.533694,-71.91184199999999"}},
{"name":"MUNIPALACIO HINDU LARAPA","location":{"country":{"slug":"gymex"},"coordinates":{"lat":-13.533029,"lng":-71.904533},"full_address":"-13.533029,-71.904533"}},
{"name":"Portal san jeronimo","location":{"country":{"slug":"gym"},"coordinates":{"lat":-13.546024,"lng":-71.89034},"full_address":"-13.546024,-71.89034"}},
{"name":"Juegops recreativos kenedi A","location":{"country":{"slug":"gym"},"coordinates":{"lat":-13.531379,"lng":-71.952026},"full_address":"-13.531379,-71.952026"}},
{"name":"Condor Apuchin","location":{"country":{"slug":"gym"},"coordinates":{"lat":-13.528293,"lng":-71.93991},"full_address":"-13.528293,-71.93991"}},
{"name":"Loza de ttio 4to","location":{"country":{"slug":"gym"},"coordinates":{"lat":-13.533958,"lng":-71.958724},"full_address":"-13.533958,-71.958724"}},
{"name":"Loza los Nogales","location":{"country":{"slug":"gym"},"coordinates":{"lat":-13.540069,"lng":-71.937843},"full_address":"-13.540069,-71.937843"}},
{"name":"Plaza Regocijo","location":{"country":{"slug":"gym"},"coordinates":{"lat":-13.517054,"lng":-71.980131},"full_address":"-13.517054, -71.980131"}},
{"name":"Cruz Tica Tica","location":{"country":{"slug":"gym"},"coordinates":{"lat":-13.507221,"lng":-71.995285},"full_address":"-13.507221,-71.995285"}},
{"name":"Parque Clorinda Matto de Turner","location":{"country":{"slug":"gym"},"coordinates":{"lat":-13.533632,"lng":-71.975676},"full_address":"-13.533632,-71.975676"}},
{"name":"El Cusco a Garcilazo","location":{"country":{"slug":"gym"},"coordinates":{"lat":-13.521120,"lng":-71.967336},"full_address":"-13.521120,-71.967336"}},
{"name":"UAC TURISMO","location":{"country":{"slug":"gym"},"coordinates":{"lat":-13.528940,"lng":-71.970418},"full_address":"-13.528940,-71.970418"}},
{"name":"Entrada Urpicha","location":{"country":{"slug":"gym"},"coordinates":{"lat":-13.530599,"lng":-71.969430},"full_address":"-13.530599, -71.969430"}},
{"name":"Cancha Deportiva Arco Tica Tica","location":{"country":{"slug":"gym"},"coordinates":{"lat":-13.510911,"lng":-72.008510},"full_address":"-13.510911,-72.008510"}},
{"name":"Fuente de agua de 4to de san Sebastian","location":{"country":{"slug":"gym"},"coordinates":{"lat":-13.530109,"lng":-71.932425},"full_address":"-13.530109,-71.932425"}},
{"name":"SUNAT de san Sebastian","location":{"country":{"slug":"gym"},"coordinates":{"lat":-13.530830,"lng":-71.930862},"full_address":"-13.530830,-71.930862"}},
{"name":"Canchita","location":{"country":{"slug":"gym"},"coordinates":{"lat":-13.536608,"lng":-71.950145},"full_address":"-13.536608, -71.950145"}},
{"name":"Gruta Sra de Fátima","location":{"country":{"slug":"gym"},"coordinates":{"lat":-13.533221,"lng":-71.965707},"full_address":"-13.533221,-71.965707"}},
{"name":"Losa Deportiva Los Jardines","location":{"country":{"slug":"gym"},"coordinates":{"lat":-13.535310,"lng":-71.990214},"full_address":"-13.535310, -71.990214"}},
{"name":"Virgen Natividad De Almudena","location":{"country":{"slug":"gym"},"coordinates":{"lat":-13.52659,"lng":-71.99096},"full_address":"-13.52659,-71.99096990214"}},
{"name":"Nido Charmander","location":{"country":{"slug":"nido"},"coordinates":{"lat":-13.508363,"lng":-71.981724},"full_address":"-13.508363, -71.981724"}},
{"name":"Nido Wailmer","location":{"country":{"slug":"nido"},"coordinates":{"lat":-13.518413,"lng":-71.981355},"full_address":"-13.518413, -71.981355"}},
{"name":"Mision Scyther","location":{"country":{"slug":"stop"},"coordinates":{"lat":-13.524006,"lng":-71.961440},"full_address":"-13.524006, -71.961440"}},
{"name":"Mision Ditto","location":{"country":{"slug":"stop"},"coordinates":{"lat":-13.523763,"lng":-71.962000},"full_address":"-13.523763,-71.962000"}},
{"name":"Mision Spinda","location":{"country":{"slug":"stop"},"coordinates":{"lat":-13.516693,"lng":-71.951922},"full_address":"-13.516693, -71.951922"}},
{"name":"Mision Caterpi","location":{"country":{"slug":"stop"},"coordinates":{"lat":-13.517101,"lng":-71.950797},"full_address":"-13.517101, -71.950797"}},
{"name":"Mision Ditto","location":{"country":{"slug":"stop"},"coordinates":{"lat":-13.52101,"lng":-71.95905},"full_address":"-13.52101,-71.95905"}},
{"name":"Mision Aerodactyl","location":{"country":{"slug":"stop"},"coordinates":{"lat":-13.51880,"lng":-71.96016},"full_address":"-13.51880,-71.96016"}},
{"name":"Mision Aerodactyl","location":{"country":{"slug":"stop"},"coordinates":{"lat":-13.52301,"lng":-71.95990},"full_address":"-13.52301,-71.95990"}},
{"name":"Mision Magicarp","location":{"country":{"slug":"stop"},"coordinates":{"lat":-13.52691,"lng":-71.96230},"full_address":"-13.52691,-71.96230"}},
{"name":"Mision Pineco","location":{"country":{"slug":"stop"},"coordinates":{"lat":-13.52403,"lng":-71.95670},"full_address":"-13.52403,-71.95670"}},
{"name":"Mision Spinda","location":{"country":{"slug":"stop"},"coordinates":{"lat":-13.52380,"lng":-71.95200},"full_address":"-13.52380,-71.95200"}},
{"name":"Mision Ditto","location":{"country":{"slug":"stop"},"coordinates":{"lat":-13.52323,"lng":-71.95879},"full_address":"-13.52323,-71.95879"}}
]